countryCode,latitude,longitude,Location,originalID,Data
AF,33.93911,67.709953,Afghanistan,1,latitudes
AL,41.153332,20.168331,Albania,2,latitudes
DZ,28.033886,1.659626,Algeria,3,latitudes
AS,-14.270972,-170.132217,American Samoa,4,latitudes
AD,42.546245,1.601554,Andorra,5,latitudes
AO,-11.202692,17.873887,Angola,6,latitudes
AI,18.220554,-63.068615,Anguilla,7,latitudes
AQ,-75.250973,-0.071389,Antarctica,8,latitudes
AG,17.060816,-61.796428,Antigua and Barbuda,9,latitudes
AR,-38.416097,-63.616672,Argentina,10,latitudes
AM,40.069099,45.038189,Armenia,11,latitudes
AW,12.52111,-69.968338,Aruba,12,latitudes
AU,-25.274398,133.775136,Australia,13,latitudes
AT,47.516231,14.550072,Austria,14,latitudes
AZ,40.143105,47.576927,Azerbaijan,15,latitudes
BS,25.03428,-77.39628,Bahamas,16,latitudes
BH,25.930414,50.637772,Bahrain,17,latitudes
BD,23.684994,90.356331,Bangladesh,18,latitudes
BB,13.193887,-59.543198,Barbados,19,latitudes
BY,53.709807,27.953389,Belarus,20,latitudes
BE,50.503887,4.469936,Belgium,21,latitudes
BZ,17.189877,-88.49765,Belize,22,latitudes
BJ,9.30769,2.315834,Benin,23,latitudes
BM,32.321384,-64.75737,Bermuda,24,latitudes
BT,27.514162,90.433601,Bhutan,25,latitudes
BO,-16.290154,-63.588653,Bolivia,26,latitudes
BA,43.915886,17.679076,Bosnia and Herzegovina,27,latitudes
BW,-22.328474,24.684866,Botswana,28,latitudes
BV,-54.423199,3.413194,Bouvet Island,29,latitudes
BR,-14.235004,-51.92528,Brazil,30,latitudes
IO,-6.343194,71.876519,British Indian Ocean Territory,31,latitudes
VG,18.420695,-64.639968,British Virgin Islands,32,latitudes
BN,4.535277,114.727669,Brunei,33,latitudes
BG,42.733883,25.48583,Bulgaria,34,latitudes
BF,12.238333,-1.561593,Burkina Faso,35,latitudes
BI,-3.373056,29.918886,Burundi,36,latitudes
KH,12.565679,104.990963,Cambodia,37,latitudes
CM,7.369722,12.354722,Cameroon,38,latitudes
CA,56.130366,-106.346771,Canada,39,latitudes
CV,16.002082,-24.013197,Cape Verde,40,latitudes
KY,19.513469,-80.566956,Cayman Islands,41,latitudes
CF,6.611111,20.939444,Central African Republic,42,latitudes
TD,15.454166,18.732207,Chad,43,latitudes
CL,-35.675147,-71.542969,Chile,44,latitudes
CN,35.86166,104.195397,China,45,latitudes
CX,-10.447525,105.690449,Christmas Island,46,latitudes
CC,-12.164165,96.870956,Cocos [Keeling] Islands,47,latitudes
CO,4.570868,-74.297333,Colombia,48,latitudes
KM,-11.875001,43.872219,Comoros,49,latitudes
CD,-4.038333,21.758664,Congo [DRC],50,latitudes
CG,-0.228021,15.827659,Congo [Republic],51,latitudes
CK,-21.236736,-159.777671,Cook Islands,52,latitudes
CR,9.748917,-83.753428,Costa Rica,53,latitudes
CI,7.539989,-5.54708,Côte d'Ivoire,54,latitudes
HR,45.1,15.2,Croatia,55,latitudes
CU,21.521757,-77.781167,Cuba,56,latitudes
CY,35.126413,33.429859,Cyprus,57,latitudes
CZ,49.817492,15.472962,Czech Republic,58,latitudes
DK,56.26392,9.501785,Denmark,59,latitudes
DJ,11.825138,42.590275,Djibouti,60,latitudes
DM,15.414999,-61.370976,Dominica,61,latitudes
DO,18.735693,-70.162651,Dominican Republic,62,latitudes
EC,-1.831239,-78.183406,Ecuador,63,latitudes
EG,26.820553,30.802498,Egypt,64,latitudes
SV,13.794185,-88.89653,El Salvador,65,latitudes
GQ,1.650801,10.267895,Equatorial Guinea,66,latitudes
ER,15.179384,39.782334,Eritrea,67,latitudes
EE,58.595272,25.013607,Estonia,68,latitudes
ET,9.145,40.489673,Ethiopia,69,latitudes
FK,-51.796253,-59.523613,Falkland Islands [Islas Malvinas],70,latitudes
FO,61.892635,-6.911806,Faroe Islands,71,latitudes
FJ,-16.578193,179.414413,Fiji,72,latitudes
FI,61.92411,25.748151,Finland,73,latitudes
FR,46.227638,2.213749,France,74,latitudes
GF,3.933889,-53.125782,French Guiana,75,latitudes
PF,-17.679742,-149.406843,French Polynesia,76,latitudes
TF,-49.280366,69.348557,French Southern Territories,77,latitudes
GA,-0.803689,11.609444,Gabon,78,latitudes
GM,13.443182,-15.310139,Gambia,79,latitudes
GZ,31.354676,34.308825,Gaza Strip,80,latitudes
GE,42.315407,43.356892,Georgia,81,latitudes
DE,51.165691,10.451526,Germany,82,latitudes
GH,7.946527,-1.023194,Ghana,83,latitudes
GI,36.137741,-5.345374,Gibraltar,84,latitudes
GR,39.074208,21.824312,Greece,85,latitudes
GL,71.706936,-42.604303,Greenland,86,latitudes
GD,12.262776,-61.604171,Grenada,87,latitudes
GP,16.995971,-62.067641,Guadeloupe,88,latitudes
GU,13.444304,144.793731,Guam,89,latitudes
GT,15.783471,-90.230759,Guatemala,90,latitudes
GG,49.465691,-2.585278,Guernsey,91,latitudes
GN,9.945587,-9.696645,Guinea,92,latitudes
GW,11.803749,-15.180413,Guinea-Bissau,93,latitudes
GY,4.860416,-58.93018,Guyana,94,latitudes
HT,18.971187,-72.285215,Haiti,95,latitudes
HM,-53.08181,73.504158,Heard Island and McDonald Islands,96,latitudes
HN,15.199999,-86.241905,Honduras,97,latitudes
HK,22.396428,114.109497,Hong Kong,98,latitudes
HU,47.162494,19.503304,Hungary,99,latitudes
IS,64.963051,-19.020835,Iceland,100,latitudes
IN,20.593684,78.96288,India,101,latitudes
ID,-0.789275,113.921327,Indonesia,102,latitudes
IR,32.427908,53.688046,Iran,103,latitudes
IQ,33.223191,43.679291,Iraq,104,latitudes
IE,53.41291,-8.24389,Ireland,105,latitudes
IM,54.236107,-4.548056,Isle of Man,106,latitudes
IL,31.046051,34.851612,Israel,107,latitudes
IT,41.87194,12.56738,Italy,108,latitudes
JM,18.109581,-77.297508,Jamaica,109,latitudes
JP,36.204824,138.252924,Japan,110,latitudes
JE,49.214439,-2.13125,Jersey,111,latitudes
JO,30.585164,36.238414,Jordan,112,latitudes
KZ,48.019573,66.923684,Kazakhstan,113,latitudes
KE,-0.023559,37.906193,Kenya,114,latitudes
KI,-3.370417,-168.734039,Kiribati,115,latitudes
XK,42.602636,20.902977,Kosovo,116,latitudes
KW,29.31166,47.481766,Kuwait,117,latitudes
KG,41.20438,74.766098,Kyrgyzstan,118,latitudes
LA,19.85627,102.495496,Laos,119,latitudes
LV,56.879635,24.603189,Latvia,120,latitudes
LB,33.854721,35.862285,Lebanon,121,latitudes
LS,-29.609988,28.233608,Lesotho,122,latitudes
LR,6.428055,-9.429499,Liberia,123,latitudes
LY,26.3351,17.228331,Libya,124,latitudes
LI,47.166,9.555373,Liechtenstein,125,latitudes
LT,55.169438,23.881275,Lithuania,126,latitudes
LU,49.815273,6.129583,Luxembourg,127,latitudes
MO,22.198745,113.543873,Macau,128,latitudes
MK,41.608635,21.745275,Macedonia [FYROM],129,latitudes
MG,-18.766947,46.869107,Madagascar,130,latitudes
MW,-13.254308,34.301525,Malawi,131,latitudes
MY,4.210484,101.975766,Malaysia,132,latitudes
MV,3.202778,73.22068,Maldives,133,latitudes
ML,17.570692,-3.996166,Mali,134,latitudes
MT,35.937496,14.375416,Malta,135,latitudes
MH,7.131474,171.184478,Marshall Islands,136,latitudes
MQ,14.641528,-61.024174,Martinique,137,latitudes
MR,21.00789,-10.940835,Mauritania,138,latitudes
MU,-20.348404,57.552152,Mauritius,139,latitudes
YT,-12.8275,45.166244,Mayotte,140,latitudes
MX,23.634501,-102.552784,Mexico,141,latitudes
FM,7.425554,150.550812,Micronesia,142,latitudes
MD,47.411631,28.369885,Moldova,143,latitudes
MC,43.750298,7.412841,Monaco,144,latitudes
MN,46.862496,103.846656,Mongolia,145,latitudes
ME,42.708678,19.37439,Montenegro,146,latitudes
MS,16.742498,-62.187366,Montserrat,147,latitudes
MA,31.791702,-7.09262,Morocco,148,latitudes
MZ,-18.665695,35.529562,Mozambique,149,latitudes
MM,21.913965,95.956223,Myanmar [Burma],150,latitudes
NA,-22.95764,18.49041,Namibia,151,latitudes
NR,-0.522778,166.931503,Nauru,152,latitudes
NP,28.394857,84.124008,Nepal,153,latitudes
NL,52.132633,5.291266,Netherlands,154,latitudes
AN,12.226079,-69.060087,Netherlands Antilles,155,latitudes
NC,-20.904305,165.618042,New Caledonia,156,latitudes
NZ,-40.900557,174.885971,New Zealand,157,latitudes
NI,12.865416,-85.207229,Nicaragua,158,latitudes
NE,17.607789,8.081666,Niger,159,latitudes
NG,9.081999,8.675277,Nigeria,160,latitudes
NU,-19.054445,-169.867233,Niue,161,latitudes
NF,-29.040835,167.954712,Norfolk Island,162,latitudes
KP,40.339852,127.510093,North Korea,163,latitudes
MP,17.33083,145.38469,Northern Mariana Islands,164,latitudes
NO,60.472024,8.468946,Norway,165,latitudes
OM,21.512583,55.923255,Oman,166,latitudes
PK,30.375321,69.345116,Pakistan,167,latitudes
PW,7.51498,134.58252,Palau,168,latitudes
PS,31.952162,35.233154,Palestinian Territories,169,latitudes
PA,8.537981,-80.782127,Panama,170,latitudes
PG,-6.314993,143.95555,Papua New Guinea,171,latitudes
PY,-23.442503,-58.443832,Paraguay,172,latitudes
PE,-9.189967,-75.015152,Peru,173,latitudes
PH,12.879721,121.774017,Philippines,174,latitudes
PN,-24.703615,-127.439308,Pitcairn Islands,175,latitudes
PL,51.919438,19.145136,Poland,176,latitudes
PT,39.399872,-8.224454,Portugal,177,latitudes
PR,18.220833,-66.590149,Puerto Rico,178,latitudes
QA,25.354826,51.183884,Qatar,179,latitudes
RE,-21.115141,55.536384,Réunion,180,latitudes
RO,45.943161,24.96676,Romania,181,latitudes
RU,61.52401,105.318756,Russia,182,latitudes
RW,-1.940278,29.873888,Rwanda,183,latitudes
SH,-24.143474,-10.030696,Saint Helena,184,latitudes
KN,17.357822,-62.782998,Saint Kitts and Nevis,185,latitudes
LC,13.909444,-60.978893,Saint Lucia,186,latitudes
PM,46.941936,-56.27111,Saint Pierre and Miquelon,187,latitudes
VC,12.984305,-61.287228,Saint Vincent and the Grenadines,188,latitudes
WS,-13.759029,-172.104629,Samoa,189,latitudes
SM,43.94236,12.457777,San Marino,190,latitudes
ST,0.18636,6.613081,São Tomé and Príncipe,191,latitudes
SA,23.885942,45.079162,Saudi Arabia,192,latitudes
SN,14.497401,-14.452362,Senegal,193,latitudes
RS,44.016521,21.005859,Serbia,194,latitudes
SC,-4.679574,55.491977,Seychelles,195,latitudes
SL,8.460555,-11.779889,Sierra Leone,196,latitudes
SG,1.352083,103.819836,Singapore,197,latitudes
SK,48.669026,19.699024,Slovakia,198,latitudes
SI,46.151241,14.995463,Slovenia,199,latitudes
SB,-9.64571,160.156194,Solomon Islands,200,latitudes
SO,5.152149,46.199616,Somalia,201,latitudes
ZA,-30.559482,22.937506,South Africa,202,latitudes
GS,-54.429579,-36.587909,South Georgia and the South Sandwich Islands,203,latitudes
KR,35.907757,127.766922,South Korea,204,latitudes
ES,40.463667,-3.74922,Spain,205,latitudes
LK,7.873054,80.771797,Sri Lanka,206,latitudes
SD,12.862807,30.217636,Sudan,207,latitudes
SR,3.919305,-56.027783,Suriname,208,latitudes
SJ,77.553604,23.670272,Svalbard and Jan Mayen,209,latitudes
SZ,-26.522503,31.465866,Swaziland,210,latitudes
SE,60.128161,18.643501,Sweden,211,latitudes
CH,46.818188,8.227512,Switzerland,212,latitudes
SY,34.802075,38.996815,Syria,213,latitudes
TW,23.69781,120.960515,Taiwan,214,latitudes
TJ,38.861034,71.276093,Tajikistan,215,latitudes
TZ,-6.369028,34.888822,Tanzania,216,latitudes
TH,15.870032,100.992541,Thailand,217,latitudes
TL,-8.874217,125.727539,Timor-Leste,218,latitudes
TG,8.619543,0.824782,Togo,219,latitudes
TK,-8.967363,-171.855881,Tokelau,220,latitudes
TO,-21.178986,-175.198242,Tonga,221,latitudes
TT,10.691803,-61.222503,Trinidad and Tobago,222,latitudes
TN,33.886917,9.537499,Tunisia,223,latitudes
TR,38.963745,35.243322,Turkey,224,latitudes
TM,38.969719,59.556278,Turkmenistan,225,latitudes
TC,21.694025,-71.797928,Turks and Caicos Islands,226,latitudes
TV,-7.109535,177.64933,Tuvalu,227,latitudes
UM,,,U.S. Minor Outlying Islands,228,latitudes
VI,18.335765,-64.896335,U.S. Virgin Islands,229,latitudes
UG,1.373333,32.290275,Uganda,230,latitudes
UA,48.379433,31.16558,Ukraine,231,latitudes
AE,23.424076,53.847818,United Arab Emirates,232,latitudes
GB,55.378051,-3.435973,United Kingdom,233,latitudes
US,37.09024,-95.712891,United States,234,latitudes
UY,-32.522779,-55.765835,Uruguay,235,latitudes
UZ,41.377491,64.585262,Uzbekistan,236,latitudes
VU,-15.376706,166.959158,Vanuatu,237,latitudes
VA,41.902916,12.453389,Vatican City,238,latitudes
VE,6.42375,-66.58973,Venezuela,239,latitudes
VN,14.058324,108.277199,Vietnam,240,latitudes
WF,-13.768752,-177.156097,Wallis and Futuna,241,latitudes
EH,24.215527,-12.885834,Western Sahara,242,latitudes
YE,15.552727,48.516388,Yemen,243,latitudes
ZM,-13.133897,27.849332,Zambia,244,latitudes
ZW,-19.015438,29.154857,Zimbabwe,245,latitudes
